{"version":3,"name":"川西_北线3_路线_2026-07-11","spots":[{"name":"上海中国工业设计博物馆","address":"上海市宝山区逸仙路3000号上海国际工业设计中心3号楼2楼","lat":31.34031,"lng":121.49676,"elevation":8},{"name":"信阳西服务区(沪陕高速西安方向)","address":"河南省信阳市平桥区","lat":32.45439,"lng":113.889976,"elevation":117},{"name":"凤县服务区(眉凤高速凤县方向)","address":"陕西省宝鸡市凤县","lat":33.947384,"lng":106.795931,"elevation":1199},{"name":"九寨沟","address":"","lat":33.252,"lng":104.2426,"elevation":1390},{"name":"九寨沟景区","address":"四川省阿坝藏族羌族自治州九寨沟县漳扎镇","lat":33.18379,"lng":103.91875,"elevation":3419},{"name":"神仙池","address":"四川省阿坝藏族羌族自治州九寨沟县","lat":33.378318,"lng":103.692603,"elevation":3260},{"name":"九寨沟爱情海景区","address":"四川省阿坝藏族羌族自治州九寨沟县G544九寨天堂","lat":33.245291,"lng":103.757937,"elevation":2753},{"name":"黄龙","address":"","lat":32.7397,"lng":103.8346,"elevation":3547},{"name":"牟尼沟风景区","address":"四川省阿坝藏族羌族自治州松潘县黄龙管理局","lat":32.59251,"lng":103.556261,"elevation":3342},{"name":"扎尕那景区","address":"甘肃省甘南藏族自治州迭部县益哇镇尼扎段","lat":34.236772,"lng":103.192923,"elevation":2888},{"name":"格尔底寺院","address":"四川省阿坝藏族羌族自治州若尔盖县郎木寺客运中心西南600米","lat":34.083068,"lng":102.629033,"elevation":3441},{"name":"纳摩大峡谷","address":"四川省阿坝藏族羌族自治州若尔盖县红星镇尔底寺251号郎木寺景区内","lat":34.079196,"lng":102.625641,"elevation":3483},{"name":"若尔盖花湖","address":"","lat":33.9484,"lng":102.8484,"elevation":3475},{"name":"九曲黄河第一湾","address":"","lat":33.464,"lng":102.4874,"elevation":3452},{"name":"莲宝叶则","address":"","lat":33.004,"lng":101.3497,"elevation":3517},{"name":"奶子沟风景区","address":"四川省阿坝藏族羌族自治州黑水县达古冰山风景区","lat":32.07875,"lng":102.815737,"elevation":3603},{"name":"米亚罗风景区","address":"四川省阿坝藏族羌族自治州理县","lat":31.613752,"lng":102.816261,"elevation":2953},{"name":"古尔沟旅游度假区","address":"四川省阿坝藏族羌族自治州理县","lat":31.5188,"lng":102.993482,"elevation":2709},{"name":"甘堡藏寨","address":"四川省阿坝藏族羌族自治州理县甘堡乡","lat":31.484626,"lng":103.200293,"elevation":1794},{"name":"毕棚沟景区","address":"四川省阿坝藏族羌族自治州理县朴头镇庄房村55号","lat":31.375295,"lng":102.993955,"elevation":3577},{"name":"四姑娘山长坪沟景区","address":"四川省阿坝藏族羌族自治州小金县四姑娘山镇","lat":30.99911,"lng":102.84619,"elevation":3439},{"name":"青白江服务区(成都第二绕城高速内环方向)","address":"四川省成都市青白江区","lat":30.884019,"lng":104.338252,"elevation":466},{"name":"雾渡河服务区(沪蓉高速上海方向)","address":"湖北省宜昌市夷陵区","lat":31.127831,"lng":111.181183,"elevation":459},{"name":"清溪服务区(沪武高速上海方向)","address":"安徽省马鞍山市含山县","lat":31.634037,"lng":118.018074,"elevation":96},{"name":"上海中国工业设计博物馆","address":"上海市宝山区逸仙路3000号上海国际工业设计中心3号楼2楼","lat":31.34031,"lng":121.49676,"elevation":8}],"savedAt":"2026-07-11T00:47:19.855Z"}